{"type":"FeatureCollection","features":[{"type":"Feature","properties":{"id":1,"name":" Dragon Bravo Fire","acers":"145,504","date":"July 4th"},"geometry":{"type":"Point","coordinates":[-112.0581,36.2135]}},{"type":"Feature","properties":{"id":2,"name":"Lee Fire","acers":"137,758","date":"August 2nd"},"geometry":{"type":"Point","coordinates":[-108.151389,39.964444]}},{"type":"Feature","properties":{"id":3,"name":"Cottonwood Peak Fire","acers":"132,604","date":"August 15th"},"geometry":{"type":"Point","coordinates":[-116.235504,41.369458]}},{"type":"Feature","properties":{"id":4,"name":"Gifford Fire","acers":"131,614","date":"August 1st"},"geometry":{"type":"Point","coordinates":[-120.159167,35.076389]}},{"type":"Feature","properties":{"id":5,"name":"Red Canyon Fire","acers":"124,709","date":"August 13th"},"geometry":{"type":"Point","coordinates":[-107.122898,43.656061]}},{"type":"Feature","properties":{"id":6,"name":"Klikhtentotzna Fire","acers":"117,908","date":"June 17th"},"geometry":{"type":"Point","coordinates":[-154.259838,66.616146]}},{"type":"Feature","properties":{"id":7,"name":"Cram Fire","acers":"95,736","date":"July 13th"},"geometry":{"type":"Point","coordinates":[-121.941944,44.796667]}},{"type":"Feature","properties":{"id":8,"name":"Jakes Fire","acers":"82,216","date":"August 1st"},"geometry":{"type":"Point","coordinates":[-116.855281,41.279191]}},{"type":"Feature","properties":{"id":9,"name":"Madre Fire","acers":"80,786","date":"July 2nd"},"geometry":{"type":"Point","coordinates":[-119.98433,35.035773]}},{"type":"Feature","properties":{"id":10,"name":"Monroe Canyon Fire","acers":"73,721","date":"July 13th"},"geometry":{"type":"Point","coordinates":[-112.077981,38.558682]}},{"type":"Feature","properties":{"id":11,"name":"Moldy Fire","acers":"72,216","date":"June 20th"},"geometry":{"type":"Point","coordinates":[-156,65.613505]}},{"type":"Feature","properties":{"id":12,"name":"Christan Fire","acers":"64,065","date":"June 20th"},"geometry":{"type":"Point","coordinates":[-152.1,65.3]}},{"type":"Feature","properties":{"id":13,"name":"Garnet Fire","acers":"59,844","date":"August 24th"},"geometry":{"type":"Point","coordinates":[-118.960935,36.977057]}},{"type":"Feature","properties":{"id":14,"name":"White Sage Fire","acers":"58,985","date":"July 9th"},"geometry":{"type":"Point","coordinates":[-112.257778,36.789444]}},{"type":"Feature","properties":{"id":15,"name":"Buck Fire","acers":"57,753","date":"June 12th"},"geometry":{"type":"Point","coordinates":[-108.201322,33.290766]}}]}